{
	"tiks": [
		{
			"lon": 38.85265215,
			"lat": 56.74150065,
			"desc": "ул. Комсомольская, д. 5",
			"phone": "(48535) 3-23-93, 3-12-66",
			"url": "http://www.yaroslavl.vybory.izbirkom.ru/region/yaroslavl?action=show_komissia&region=76&sub_region=76&type=100&vrnorg=276200070638&vrnkomis=476401190571",
			"name": "города Переславля-Залесского"
		}
	],
	"uiks": [
		{
			"lon": 38.8685202,
			"lat": 56.73887625,
			"obj": "Городская больница",
			"addr": "ул. Свободы, 42-а",
			"phone": "6-64-06",
			"number": 382,
			"borders": [[[38.8676220, 56.7383007], [38.8677755,56.7380413], [38.8679531, 56.7379428], [38.8692277, 56.7378001], [38.8723069, 56.7373135], [38.8725542, 56.7378757], [38.8713442, 56.7379176], [38.8719111, 56.7393471], [38.8703065, 56.7397509], [38.8702576, 56.7398015], [38.8699511, 56.7403636], [38.8696368, 56.7402710], [38.8680385, 56.7397094]]]
		},
		{
			"lon": 38.81477345,
			"lat": 56.71516915,
			"obj": "Средняя школа № 2",
			"addr": "мкр. Чкаловский, 53",
			"phone": "2-37-96",
			"number": 383
		},
		{
			"lon": 38.81751495,
			"lat": 56.72071235,
			"obj": "Гарнизонный офицерский клуб",
			"addr": "мкр.Чкаловский, ГОК",
			"phone": "3-28-70 (через коммутатор)",
			"number": 384
		},
		{
			"lon": 38.83822155,
			"lat": 56.72480615,
			"obj": "Спецшкола № 8",
			"addr": "ул. Кардовского, 61",
			"phone": "3-22-43",
			"number": 385
		},
		{
			"lon": 38.84704525,
			"lat": 56.7297127,
			"obj": "Средняя школа № 3",
			"addr": "ул. Кардовского, 11",
			"phone": "3-23-56",
			"number": 386
		},
		{
			"lon": 38.8552205,
			"lat": 56.736813,
			"obj": "Средняя школа № 1",
			"addr": "ул. Советская, 3",
			"phone": "3-09-42",
			"number": 387
		},
		{
			"lon": 38.8446746,
			"lat": 56.73858855,
			"obj": "Спортивный зал ЗАО «Новый мир»",
			"addr": "ул. Плещеевская, 22",
			"phone": "3-27-60",
			"number": 388
		},
		{
			"lon": 38.85411645,
			"lat": 56.7397165,
			"obj": "Центр внешкольной работы «Ювента»",
			"addr": "пл. Народная, 8",
			"phone": "3-27-98",
			"number": 389
		},
		{
			"lon": 38.86584035,
			"lat": 56.7467585,
			"obj": "Переславский кинофотохимический колледж",
			"addr": "пос. Красный химик, 1",
			"phone": "3-17-90",
			"number": 390
		},
		{
			"lon": 38.8680069,
			"lat": 56.74057315,
			"obj": "Детская музыкальная школа",
			"addr": "ул. Свободы, д. 47а",
			"phone": "3-14-69",
			"number": 391
		},
		{
			"lon": 38.870699,
			"lat": 56.74092085,
			"obj": "Школа-интернат № 4",
			"addr": "ул. Свободы, 61",
			"phone": "3-28-03",
			"number": 392
		},
		{
			"lon": 38.88387285,
			"lat": 56.73897075,
			"obj": "Средняя школа № 9",
			"addr": "пер. Берендеевский, 27",
			"phone": "3-27-30",
			"number": 393
		},
		{
			"lon": 38.8830654,
			"lat": 56.74851025,
			"obj": "Средняя школа № 4",
			"addr": "ул. Октябрьская, 41",
			"phone": "3-69-04",
			"number": 394
		},
		{
			"lon": 38.8766215,
			"lat": 56.7480129,
			"obj": "ПУ № 37",
			"addr": "ул. Строителей, 22",
			"phone": "3-72-52",
			"number": 395
		},
		{
			"lon": 38.87717085,
			"lat": 56.74992095,
			"obj": "ПУ № 6",
			"addr": "ул. Строителей, 33",
			"phone": "3-70-94",
			"number": 396
		},
		{
			"lon": 38.8880257,
			"lat": 56.75190375,
			"obj": "ООО «Культурный Центр»",
			"addr": "пл. Менделеева, 2",
			"phone": "3-04-00",
			"number": 397
		},
		{
			"lon": 38.87933895,
			"lat": 56.74998425,
			"obj": "Столовая ПУ № 6",
			"addr": "ул. Строителей, 33",
			"phone": "3-70-93",
			"number": 398
		},
		{
			"lon": 38.87891055,
			"lat": 56.75276595,
			"obj": "Гимназия",
			"addr": "ул. Менделеева, 36",
			"phone": "3-52-83",
			"number": 399
		},
		{
			"lon": 38.8786518,
			"lat": 56.75240435,
			"obj": "Спортивный зал гимназии",
			"addr": "ул.Менделеева, 36",
			"phone": "3-52-83",
			"number": 400
		},
		{
			"lon": 38.87190795,
			"lat": 56.7512315,
			"obj": "Центральная городская библиотека им. А.П. Малашенко",
			"addr": "ул. 50 лет Комсомола, 1",
			"phone": "3-29-22",
			"number": 401
		},
		{
			"lon": 38.8699351,
			"lat": 56.7556232,
			"obj": "Средняя школа № 6",
			"addr": "ул. Менделеева, 10",
			"phone": "3-26-10",
			"number": 402
		}
	]
}
